{"type": "FeatureCollection", "features": [{"type": "Feature", "properties": {"type": "s_hood", "label": "LOYAL HEIGHTS", "s_hood_alt_names": null, "h_length": 13}, "geometry": {"type": "Point", "coordinates": [-122.3848975661726, 47.68327619388399]}}, {"type": "Feature", "properties": {"type": "s_hood", "label": "BALLARD", "s_hood_alt_names": "Adams", "h_length": 7}, "geometry": {"type": "Point", "coordinates": [-122.38635703976118, 47.67006836543859]}}, {"type": "Feature", "properties": {"type": "s_hood", "label": "WHITTIER HEIGHTS", "s_hood_alt_names": null, "h_length": 16}, "geometry": {"type": "Point", "coordinates": [-122.37139736053224, 47.68330526895475]}}, {"type": "Feature", "properties": {"type": "s_hood", "label": "WEST WOODLAND", "s_hood_alt_names": null, "h_length": 13}, "geometry": {"type": "Point", "coordinates": [-122.36854831788196, 47.66787135576872]}}, {"type": "Feature", "properties": {"type": "s_hood", "label": "PHINNEY RIDGE", "s_hood_alt_names": "Woodland Park", "h_length": 13}, "geometry": {"type": "Point", "coordinates": [-122.35332347286419, 47.67404450482345]}}, {"type": "Feature", "properties": {"type": "s_hood", "label": "WALLINGFORD", "s_hood_alt_names": "Meridian, Tangle Town, Northlake", "h_length": 11}, "geometry": {"type": "Point", "coordinates": [-122.33306785205869, 47.65999478162769]}}, {"type": "Feature", "properties": {"type": "s_hood", "label": "FREMONT", "s_hood_alt_names": null, "h_length": 7}, "geometry": {"type": "Point", "coordinates": [-122.35278898377308, 47.65682273035377]}}, {"type": "Feature", "properties": {"type": "s_hood", "label": "GREEN LAKE", "s_hood_alt_names": null, "h_length": 10}, "geometry": {"type": "Point", "coordinates": [-122.3340478493885, 47.68035586516549]}}, {"type": "Feature", "properties": {"type": "s_hood", "label": "VIEW RIDGE", "s_hood_alt_names": null, "h_length": 10}, "geometry": {"type": "Point", "coordinates": [-122.27363761559832, 47.68295521327574]}}, {"type": "Feature", "properties": {"type": "s_hood", "label": "RAVENNA", "s_hood_alt_names": "University Village", "h_length": 7}, "geometry": {"type": "Point", "coordinates": [-122.29997757284647, 47.6751301027334]}}, {"type": "Feature", "properties": {"type": "s_hood", "label": "SAND POINT", "s_hood_alt_names": null, "h_length": 10}, "geometry": {"type": "Point", "coordinates": [-122.25611239223161, 47.68129938099486]}}, {"type": "Feature", "properties": {"type": "s_hood", "label": "BRYANT", "s_hood_alt_names": null, "h_length": 6}, "geometry": {"type": "Point", "coordinates": [-122.28598490225195, 47.67162944264446]}}, {"type": "Feature", "properties": {"type": "s_hood", "label": "WINDERMERE", "s_hood_alt_names": "Hawthorne Hills", "h_length": 10}, "geometry": {"type": "Point", "coordinates": [-122.26769637585532, 47.66962379439949]}}, {"type": "Feature", "properties": {"type": "s_hood", "label": "LAURELHURST", "s_hood_alt_names": null, "h_length": 11}, "geometry": {"type": "Point", "coordinates": [-122.28311640638208, 47.660315749075174]}}, {"type": "Feature", "properties": {"type": "s_hood", "label": "ROOSEVELT", "s_hood_alt_names": "Fairview", "h_length": 9}, "geometry": {"type": "Point", "coordinates": [-122.3164167467205, 47.683074823663894]}}, {"type": "Feature", "properties": {"type": "s_hood", "label": "UNIVERSITY OF WASHINGTON", "s_hood_alt_names": null, "h_length": 24}, "geometry": {"type": "Point", "coordinates": [-122.30822165281933, 47.65487169669189]}}, {"type": "Feature", "properties": {"type": "s_hood", "label": "EAST QUEEN ANNE", "s_hood_alt_names": null, "h_length": 15}, "geometry": {"type": "Point", "coordinates": [-122.35437561719887, 47.633655153551345]}}, {"type": "Feature", "properties": {"type": "s_hood", "label": "WEST QUEEN ANNE", "s_hood_alt_names": null, "h_length": 15}, "geometry": {"type": "Point", "coordinates": [-122.36715668272318, 47.63446026270937]}}, {"type": "Feature", "properties": {"type": "s_hood", "label": "LOWER QUEEN ANNE", "s_hood_alt_names": "Uptown, Seattle Center", "h_length": 16}, "geometry": {"type": "Point", "coordinates": [-122.3550834305388, 47.62482284638382]}}, {"type": "Feature", "properties": {"type": "s_hood", "label": "NORTH QUEEN ANNE", "s_hood_alt_names": null, "h_length": 16}, "geometry": {"type": "Point", "coordinates": [-122.3652925986459, 47.647135793795265]}}, {"type": "Feature", "properties": {"type": "s_hood", "label": "WESTLAKE", "s_hood_alt_names": null, "h_length": 8}, "geometry": {"type": "Point", "coordinates": [-122.34165469072222, 47.632506390200966]}}, {"type": "Feature", "properties": {"type": "s_hood", "label": "EASTLAKE", "s_hood_alt_names": null, "h_length": 8}, "geometry": {"type": "Point", "coordinates": [-122.32750300674076, 47.640681901262724]}}, {"type": "Feature", "properties": {"type": "s_hood", "label": "SOUTH LAKE UNION", "s_hood_alt_names": null, "h_length": 16}, "geometry": {"type": "Point", "coordinates": [-122.33566946062288, 47.62408842312185]}}, {"type": "Feature", "properties": {"type": "s_hood", "label": "LAWTON PARK", "s_hood_alt_names": null, "h_length": 11}, "geometry": {"type": "Point", "coordinates": [-122.40706841704647, 47.658729565869294]}}, {"type": "Feature", "properties": {"type": "s_hood", "label": "BRIARCLIFF", "s_hood_alt_names": "Carleton Park", "h_length": 10}, "geometry": {"type": "Point", "coordinates": [-122.40821491582062, 47.644282176025314]}}, {"type": "Feature", "properties": {"type": "s_hood", "label": "SOUTHEAST MAGNOLIA", "s_hood_alt_names": null, "h_length": 18}, "geometry": {"type": "Point", "coordinates": [-122.39252903360955, 47.641738295419934]}}, {"type": "Feature", "properties": {"type": "s_hood", "label": "MADRONA", "s_hood_alt_names": null, "h_length": 7}, "geometry": {"type": "Point", "coordinates": [-122.28893309927867, 47.61330569853782]}}, {"type": "Feature", "properties": {"type": "s_hood", "label": "HARRISON/DENNY-BLAINE", "s_hood_alt_names": null, "h_length": 21}, "geometry": {"type": "Point", "coordinates": [-122.28720670805279, 47.623605328715236]}}, {"type": "Feature", "properties": {"type": "s_hood", "label": "MINOR", "s_hood_alt_names": "Central District, Squire Park", "h_length": 5}, "geometry": {"type": "Point", "coordinates": [-122.30921277350868, 47.60883089729945]}}, {"type": "Feature", "properties": {"type": "s_hood", "label": "LESCHI", "s_hood_alt_names": null, "h_length": 6}, "geometry": {"type": "Point", "coordinates": [-122.29111903074765, 47.60002162764707]}}, {"type": "Feature", "properties": {"type": "s_hood", "label": "MANN", "s_hood_alt_names": "Central District, Garfield", "h_length": 4}, "geometry": {"type": "Point", "coordinates": [-122.29937010655023, 47.61174632409036]}}, {"type": "Feature", "properties": {"type": "s_hood", "label": "ATLANTIC", "s_hood_alt_names": "Judkins Park, Jackson Place, Colman", "h_length": 8}, "geometry": {"type": "Point", "coordinates": [-122.30387089686788, 47.59358835998139]}}, {"type": "Feature", "properties": {"type": "s_hood", "label": "PIKE-MARKET", "s_hood_alt_names": "Pike Place Market", "h_length": 11}, "geometry": {"type": "Point", "coordinates": [-122.3423026814502, 47.60945959783116]}}, {"type": "Feature", "properties": {"type": "s_hood", "label": "BELLTOWN", "s_hood_alt_names": "Denny Regrade", "h_length": 8}, "geometry": {"type": "Point", "coordinates": [-122.348466822391, 47.615023810164026]}}, {"type": "Feature", "properties": {"type": "s_hood", "label": "INTERNATIONAL DISTRICT", "s_hood_alt_names": "Chinatown, ID, Little Saigon", "h_length": 22}, "geometry": {"type": "Point", "coordinates": [-122.32189594454763, 47.59807349768702]}}, {"type": "Feature", "properties": {"type": "s_hood", "label": "CENTRAL BUSINESS DISTRICT", "s_hood_alt_names": "Commercial Core, West Edge", "h_length": 25}, "geometry": {"type": "Point", "coordinates": [-122.33487732263714, 47.608183591676834]}}, {"type": "Feature", "properties": {"type": "s_hood", "label": "FIRST HILL", "s_hood_alt_names": null, "h_length": 10}, "geometry": {"type": "Point", "coordinates": [-122.32397353922764, 47.609913519735755]}}, {"type": "Feature", "properties": {"type": "s_hood", "label": "YESLER TERRACE", "s_hood_alt_names": null, "h_length": 14}, "geometry": {"type": "Point", "coordinates": [-122.32104393842495, 47.603178202716144]}}, {"type": "Feature", "properties": {"type": "s_hood", "label": "PIONEER SQUARE", "s_hood_alt_names": null, "h_length": 14}, "geometry": {"type": "Point", "coordinates": [-122.33201903028518, 47.5989898066408]}}, {"type": "Feature", "properties": {"type": "s_hood", "label": "SODO", "s_hood_alt_names": null, "h_length": 4}, "geometry": {"type": "Point", "coordinates": [-122.33152461367067, 47.58354167592937]}}, {"type": "Feature", "properties": {"type": "s_hood", "label": "GEORGETOWN", "s_hood_alt_names": null, "h_length": 10}, "geometry": {"type": "Point", "coordinates": [-122.31807457376925, 47.5414123558723]}}, {"type": "Feature", "properties": {"type": "s_hood", "label": "SOUTH PARK", "s_hood_alt_names": null, "h_length": 10}, "geometry": {"type": "Point", "coordinates": [-122.32600707820637, 47.52827695760316]}}, {"type": "Feature", "properties": {"type": "s_hood", "label": "HARBOR ISLAND", "s_hood_alt_names": null, "h_length": 13}, "geometry": {"type": "Point", "coordinates": [-122.3513924114815, 47.57962853483863]}}, {"type": "Feature", "properties": {"type": "s_hood", "label": "SEAVIEW", "s_hood_alt_names": null, "h_length": 7}, "geometry": {"type": "Point", "coordinates": [-122.39314704522303, 47.55485492134155]}}, {"type": "Feature", "properties": {"type": "s_hood", "label": "GATEWOOD", "s_hood_alt_names": "Morgan Junction", "h_length": 8}, "geometry": {"type": "Point", "coordinates": [-122.3842331629297, 47.53794461318519]}}, {"type": "Feature", "properties": {"type": "s_hood", "label": "ARBOR HEIGHTS", "s_hood_alt_names": null, "h_length": 13}, "geometry": {"type": "Point", "coordinates": [-122.38231778429214, 47.51170802681769]}}, {"type": "Feature", "properties": {"type": "s_hood", "label": "ALKI", "s_hood_alt_names": null, "h_length": 4}, "geometry": {"type": "Point", "coordinates": [-122.4111958134412, 47.57506217106271]}}, {"type": "Feature", "properties": {"type": "s_hood", "label": "NORTH ADMIRAL", "s_hood_alt_names": "Belvidere", "h_length": 13}, "geometry": {"type": "Point", "coordinates": [-122.38706358605675, 47.579121957492866]}}, {"type": "Feature", "properties": {"type": "s_hood", "label": "FAIRMOUNT PARK", "s_hood_alt_names": null, "h_length": 14}, "geometry": {"type": "Point", "coordinates": [-122.3805266554888, 47.55510029131164]}}, {"type": "Feature", "properties": {"type": "s_hood", "label": "GENESEE", "s_hood_alt_names": "Alaska Junction, West Seattle Junction", "h_length": 7}, "geometry": {"type": "Point", "coordinates": [-122.38759613037925, 47.565243351261394]}}, {"type": "Feature", "properties": {"type": "s_hood", "label": "FAUNTLEROY", "s_hood_alt_names": "Endolyne, Arroyo Heights, Brace Point", "h_length": 10}, "geometry": {"type": "Point", "coordinates": [-122.38868876855975, 47.52260693414818]}}, {"type": "Feature", "properties": {"type": "s_hood", "label": "NORTH BEACON HILL", "s_hood_alt_names": "Jefferson Park", "h_length": 17}, "geometry": {"type": "Point", "coordinates": [-122.30977366352974, 47.578363375280674]}}, {"type": "Feature", "properties": {"type": "s_hood", "label": "MID-BEACON HILL", "s_hood_alt_names": null, "h_length": 15}, "geometry": {"type": "Point", "coordinates": [-122.30468032083877, 47.55423732751113]}}, {"type": "Feature", "properties": {"type": "s_hood", "label": "SOUTH BEACON HILL", "s_hood_alt_names": null, "h_length": 17}, "geometry": {"type": "Point", "coordinates": [-122.28983619372433, 47.527119282526705]}}, {"type": "Feature", "properties": {"type": "s_hood", "label": "HOLLY PARK", "s_hood_alt_names": "New Holly", "h_length": 10}, "geometry": {"type": "Point", "coordinates": [-122.28835506231596, 47.539504034112085]}}, {"type": "Feature", "properties": {"type": "s_hood", "label": "BRIGHTON", "s_hood_alt_names": null, "h_length": 8}, "geometry": {"type": "Point", "coordinates": [-122.27533766202656, 47.53887529723578]}}, {"type": "Feature", "properties": {"type": "s_hood", "label": "DUNLAP", "s_hood_alt_names": null, "h_length": 6}, "geometry": {"type": "Point", "coordinates": [-122.27064864573688, 47.52563390650064]}}, {"type": "Feature", "properties": {"type": "s_hood", "label": "RAINIER BEACH", "s_hood_alt_names": null, "h_length": 13}, "geometry": {"type": "Point", "coordinates": [-122.26325107291629, 47.51292040129757]}}, {"type": "Feature", "properties": {"type": "s_hood", "label": "RAINIER VIEW", "s_hood_alt_names": "Lake Ridge", "h_length": 12}, "geometry": {"type": "Point", "coordinates": [-122.25817015328322, 47.502166681928394]}}, {"type": "Feature", "properties": {"type": "s_hood", "label": "MOUNT BAKER", "s_hood_alt_names": "North Rainier", "h_length": 11}, "geometry": {"type": "Point", "coordinates": [-122.28906385592144, 47.57801654960499]}}, {"type": "Feature", "properties": {"type": "s_hood", "label": "COLUMBIA CITY", "s_hood_alt_names": "Columbia Heights", "h_length": 13}, "geometry": {"type": "Point", "coordinates": [-122.28618393965095, 47.558957750198076]}}, {"type": "Feature", "properties": {"type": "s_hood", "label": "HIGHLAND PARK", "s_hood_alt_names": null, "h_length": 13}, "geometry": {"type": "Point", "coordinates": [-122.34323676201477, 47.52626296206381]}}, {"type": "Feature", "properties": {"type": "s_hood", "label": "NORTH DELRIDGE", "s_hood_alt_names": "Avalon, Luna Park, Pigeon Point", "h_length": 14}, "geometry": {"type": "Point", "coordinates": [-122.36480044420945, 47.562496360022216]}}, {"type": "Feature", "properties": {"type": "s_hood", "label": "RIVERVIEW", "s_hood_alt_names": null, "h_length": 9}, "geometry": {"type": "Point", "coordinates": [-122.35370663119508, 47.546517797596316]}}, {"type": "Feature", "properties": {"type": "s_hood", "label": "HIGH POINT", "s_hood_alt_names": null, "h_length": 10}, "geometry": {"type": "Point", "coordinates": [-122.36878330295667, 47.544359258102425]}}, {"type": "Feature", "properties": {"type": "s_hood", "label": "SOUTH DELRIDGE", "s_hood_alt_names": "White Center", "h_length": 14}, "geometry": {"type": "Point", "coordinates": [-122.36043411548492, 47.52619399288959]}}, {"type": "Feature", "properties": {"type": "s_hood", "label": "ROXHILL", "s_hood_alt_names": "Westwood Village", "h_length": 7}, "geometry": {"type": "Point", "coordinates": [-122.37139845032966, 47.527175206290636]}}, {"type": "Feature", "properties": {"type": "s_hood", "label": "WEDGWOOD", "s_hood_alt_names": null, "h_length": 8}, "geometry": {"type": "Point", "coordinates": [-122.29189129665956, 47.69060802217669]}}, {"type": "Feature", "properties": {"type": "s_hood", "label": "PORTAGE BAY", "s_hood_alt_names": "Roanoke Park", "h_length": 11}, "geometry": {"type": "Point", "coordinates": [-122.31976053425079, 47.64637393497545]}}, {"type": "Feature", "properties": {"type": "s_hood", "label": "MONTLAKE", "s_hood_alt_names": "North Capitol Hill", "h_length": 8}, "geometry": {"type": "Point", "coordinates": [-122.30580840766567, 47.64068301381968]}}, {"type": "Feature", "properties": {"type": "s_hood", "label": "MADISON PARK", "s_hood_alt_names": "Broadmoor, Washington Park", "h_length": 12}, "geometry": {"type": "Point", "coordinates": [-122.28700074875069, 47.63568535188737]}}, {"type": "Feature", "properties": {"type": "s_hood", "label": "BROADWAY", "s_hood_alt_names": "Pike/Pine", "h_length": 8}, "geometry": {"type": "Point", "coordinates": [-122.3202741838907, 47.6242615702555]}}, {"type": "Feature", "properties": {"type": "s_hood", "label": "STEVENS", "s_hood_alt_names": "Interlaken Park, Miller Park, Madison-Miller", "h_length": 7}, "geometry": {"type": "Point", "coordinates": [-122.30544192794407, 47.62685478272773]}}, {"type": "Feature", "properties": {"type": "s_hood", "label": "VICTORY HEIGHTS", "s_hood_alt_names": null, "h_length": 15}, "geometry": {"type": "Point", "coordinates": [-122.3059783019686, 47.71078522384975]}}, {"type": "Feature", "properties": {"type": "s_hood", "label": "MATTHEWS BEACH", "s_hood_alt_names": null, "h_length": 14}, "geometry": {"type": "Point", "coordinates": [-122.2823142389057, 47.702710468058044]}}, {"type": "Feature", "properties": {"type": "s_hood", "label": "MEADOWBROOK", "s_hood_alt_names": null, "h_length": 11}, "geometry": {"type": "Point", "coordinates": [-122.29622452546116, 47.705565010639276]}}, {"type": "Feature", "properties": {"type": "s_hood", "label": "OLYMPIC HILLS", "s_hood_alt_names": null, "h_length": 13}, "geometry": {"type": "Point", "coordinates": [-122.30275664442088, 47.726734560625445]}}, {"type": "Feature", "properties": {"type": "s_hood", "label": "CEDAR PARK", "s_hood_alt_names": null, "h_length": 10}, "geometry": {"type": "Point", "coordinates": [-122.28729894871618, 47.7238033492636]}}, {"type": "Feature", "properties": {"type": "s_hood", "label": "BROADVIEW", "s_hood_alt_names": null, "h_length": 9}, "geometry": {"type": "Point", "coordinates": [-122.36554670243979, 47.720198983323215]}}, {"type": "Feature", "properties": {"type": "s_hood", "label": "BITTER LAKE", "s_hood_alt_names": null, "h_length": 11}, "geometry": {"type": "Point", "coordinates": [-122.35022273479136, 47.71953115663027]}}, {"type": "Feature", "properties": {"type": "s_hood", "label": "HALLER LAKE", "s_hood_alt_names": null, "h_length": 11}, "geometry": {"type": "Point", "coordinates": [-122.33543948952517, 47.72111659981656]}}, {"type": "Feature", "properties": {"type": "s_hood", "label": "PINEHURST", "s_hood_alt_names": "Jackson Park", "h_length": 9}, "geometry": {"type": "Point", "coordinates": [-122.31919197291624, 47.720387037404365]}}, {"type": "Feature", "properties": {"type": "s_hood", "label": "NORTH BEACH/BLUE RIDGE", "s_hood_alt_names": null, "h_length": 22}, "geometry": {"type": "Point", "coordinates": [-122.39007206989702, 47.69609700025241]}}, {"type": "Feature", "properties": {"type": "s_hood", "label": "LICTON SPRINGS", "s_hood_alt_names": "North College Park", "h_length": 14}, "geometry": {"type": "Point", "coordinates": [-122.33671267826631, 47.6985699637181]}}, {"type": "Feature", "properties": {"type": "s_hood", "label": "MAPLE LEAF", "s_hood_alt_names": "Olympic View", "h_length": 10}, "geometry": {"type": "Point", "coordinates": [-122.31885156670018, 47.69885783003802]}}, {"type": "Feature", "properties": {"type": "s_hood", "label": "CROWN HILL", "s_hood_alt_names": null, "h_length": 10}, "geometry": {"type": "Point", "coordinates": [-122.37249801349117, 47.69698550263665]}}, {"type": "Feature", "properties": {"type": "s_hood", "label": "GREENWOOD", "s_hood_alt_names": null, "h_length": 9}, "geometry": {"type": "Point", "coordinates": [-122.3553157969508, 47.69417515305205]}}, {"type": "Feature", "properties": {"type": "s_hood", "label": "SUNSET HILL", "s_hood_alt_names": "Golden Gardens, Shilshole", "h_length": 11}, "geometry": {"type": "Point", "coordinates": [-122.40027632544633, 47.68130738602907]}}, {"type": "Feature", "properties": {"type": "s_hood", "label": "UNIVERSITY DISTRICT", "s_hood_alt_names": null, "h_length": 19}, "geometry": {"type": "Point", "coordinates": [-122.31262356802252, 47.6631442614703]}}, {"type": "Feature", "properties": {"type": "s_hood", "label": "UNIVERSITY HEIGHTS", "s_hood_alt_names": "Cowen Park", "h_length": 18}, "geometry": {"type": "Point", "coordinates": [-122.31400650663764, 47.66851722910508]}}, {"type": "Feature", "properties": {"type": "s_hood", "label": "DENNY TRIANGLE", "s_hood_alt_names": "Denny Regrade", "h_length": 14}, "geometry": {"type": "Point", "coordinates": [-122.33621889734911, 47.61644337882286]}}, {"type": "Feature", "properties": {"type": "s_hood", "label": "INDUSTRIAL DISTRICT", "s_hood_alt_names": null, "h_length": 19}, "geometry": {"type": "Point", "coordinates": [-122.33445512486922, 47.565320363105464]}}, {"type": "Feature", "properties": {"type": "l_hood", "label": "BALLARD", "s_hood_alt_names": "Loyal Heights, Adams, Whittier Heights, West Woodland, Sunset Hill, Golden Gardens, Shilshole, Ballard", "h_length": 7}, "geometry": {"type": "Point", "coordinates": [-122.38348885952122, 47.67670614410739]}}, {"type": "Feature", "properties": {"type": "l_hood", "label": "BEACON HILL", "s_hood_alt_names": "North Beacon Hill, Mid-Beacon Hill, South Beacon Hill, Holly Park, Jefferson Park, New Holly", "h_length": 11}, "geometry": {"type": "Point", "coordinates": [-122.30966773353425, 47.5687455035459]}}, {"type": "Feature", "properties": {"type": "l_hood", "label": "CAPITOL HILL", "s_hood_alt_names": "Portage Bay, Montlake, Madison Park, Broadway, Stevens, Interlaken Park, Roanoke Park, Washington Park, North Capitol Hill, Pike/Pine, Madison-Miller, Miller Park, Broadmoor", "h_length": 12}, "geometry": {"type": "Point", "coordinates": [-122.3060452816021, 47.63174825568257]}}, {"type": "Feature", "properties": {"type": "l_hood", "label": "CASCADE", "s_hood_alt_names": "Westlake, Eastlake, South Lake Union", "h_length": 7}, "geometry": {"type": "Point", "coordinates": [-122.33630340753568, 47.62078957787244]}}, {"type": "Feature", "properties": {"type": "l_hood", "label": "CENTRAL AREA", "s_hood_alt_names": "Madrona, Harrison/Denny-Blaine, Minor, Leschi, Mann, Atlantic, Squire Park, Judkins Park, Central District, Colman, Garfield, Jackson Place", "h_length": 12}, "geometry": {"type": "Point", "coordinates": [-122.29737798539311, 47.60695431586579]}}, {"type": "Feature", "properties": {"type": "l_hood", "label": "DELRIDGE", "s_hood_alt_names": "Highland Park, North Delridge, Riverview, High Point, South Delridge, Roxhill, Westwood, Highland Park, White Center, Avalon, Luna Park, Pigeon Point", "h_length": 8}, "geometry": {"type": "Point", "coordinates": [-122.3581101349522, 47.539661963436224]}}, {"type": "Feature", "properties": {"type": "l_hood", "label": "DOWNTOWN", "s_hood_alt_names": "Pike-Market, Belltown, International District, Central Business District, First Hill, Yesler Terrace, Pioneer Square, Denny Regrade, Denny Triangle, Commercial Core, West Edge, Pike Place Market, Chinatown, Little Saigon, ID", "h_length": 8}, "geometry": {"type": "Point", "coordinates": [-122.334520025475, 47.60970576248529]}}, {"type": "Feature", "properties": {"type": "l_hood", "label": "INTERBAY", "s_hood_alt_names": "Interbay", "h_length": 8}, "geometry": {"type": "Point", "coordinates": [-122.38107171299143, 47.64173467585227]}}, {"type": "Feature", "properties": {"type": "l_hood", "label": "LAKE CITY", "s_hood_alt_names": "Victory Heights, Matthews Beach, Meadowbrook, Olympic Hills, Cedar Park", "h_length": 9}, "geometry": {"type": "Point", "coordinates": [-122.294032693928, 47.714248427188224]}}, {"type": "Feature", "properties": {"type": "l_hood", "label": "MAGNOLIA", "s_hood_alt_names": "Lawton Park, Briarcliff, Southeast Magnolia, Carleton Park", "h_length": 8}, "geometry": {"type": "Point", "coordinates": [-122.40469063329601, 47.651764421208355]}}, {"type": "Feature", "properties": {"type": "l_hood", "label": "GREATER DUWAMISH", "s_hood_alt_names": "Industrial District, Georgetown, South Park, Harbor Island, SODO", "h_length": 16}, "geometry": {"type": "Point", "coordinates": [-122.3323665775853, 47.559655708278]}}, {"type": "Feature", "properties": {"type": "l_hood", "label": "NORTHEAST", "s_hood_alt_names": "View Ridge, Ravenna, Sand Point, Bryant, Windermere, Laurelhurst, Roosevelt, Wedgwood, Hawthorne Hills, University Village, Fairview", "h_length": 9}, "geometry": {"type": "Point", "coordinates": [-122.29795650469478, 47.67958216374245]}}, {"type": "Feature", "properties": {"type": "l_hood", "label": "NORTHGATE", "s_hood_alt_names": "Haller Lake, Pinehurst, North College Park, Maple Leaf, Jackson Park, Licton Springs, Olympic View", "h_length": 9}, "geometry": {"type": "Point", "coordinates": [-122.32774758227829, 47.711504330866326]}}, {"type": "Feature", "properties": {"type": "l_hood", "label": "QUEEN ANNE", "s_hood_alt_names": "East Queen Anne, West Queen Anne, Lower Queen Anne, North Queen Anne, Uptown, Seattle Center", "h_length": 10}, "geometry": {"type": "Point", "coordinates": [-122.35995915768203, 47.63728403114122]}}, {"type": "Feature", "properties": {"type": "l_hood", "label": "RAINIER VALLEY", "s_hood_alt_names": "Brighton, Dunlap, Rainier Beach, Mount Baker, Columbia City, North Rainier, Lake Ridge, Rainier View, Columbia Heights", "h_length": 14}, "geometry": {"type": "Point", "coordinates": [-122.27825719788692, 47.54182218727673]}}, {"type": "Feature", "properties": {"type": "l_hood", "label": "SEWARD PARK", "s_hood_alt_names": "Seward Park, Lakewood, Hillman City", "h_length": 11}, "geometry": {"type": "Point", "coordinates": [-122.2649105966595, 47.55045145531174]}}, {"type": "Feature", "properties": {"type": "l_hood", "label": "WEST SEATTLE", "s_hood_alt_names": "Seaview, Gatewood, Arbor Heights, Alki, North Admiral, Fairmount Park, Genesee, Fauntleroy, Morgan Junction, Alaska Junction, Belvidere, West Seattle Junction, Brace Point, Endolyne, Arroyo Heights", "h_length": 12}, "geometry": {"type": "Point", "coordinates": [-122.38823290313492, 47.55087627207456]}}, {"type": "Feature", "properties": {"type": "l_hood", "label": "NORTHWEST", "s_hood_alt_names": "Broadview, Bitter Lake, North Beach/Blue Ridge, Crown Hill, Greenwood", "h_length": 9}, "geometry": {"type": "Point", "coordinates": [-122.36454776950671, 47.70734603697014]}}, {"type": "Feature", "properties": {"type": "l_hood", "label": "NORTH CENTRAL", "s_hood_alt_names": "Phinney Ridge, Wallingford, Fremont, Green Lake, Woodland Park, Meridian, Northlake, Tangle Town", "h_length": 13}, "geometry": {"type": "Point", "coordinates": [-122.34183491010477, 47.668162941046624]}}, {"type": "Feature", "properties": {"type": "l_hood", "label": "UNIVERSITY DISTRICT", "s_hood_alt_names": "University District, Cowen Park, University Heights", "h_length": 19}, "geometry": {"type": "Point", "coordinates": [-122.31333138132506, 47.65923517877785]}}]}